TimeUS,RATE-R,ATT-Roll,RATE-P,ATT-Pitch,RATE-Y,ATT-Yaw,RCOU-C1,RCOU-C2,RCOU-C3,RCOU-C4,,,,,,,,
140280627,0.04077323,1.47,0.07807885,-2.23,0.117536,92.67,1000,1000,1000,1000,,,,,,,,
140385431,0.0768021,1.46,0.07023101,-2.23,0.03949669,92.67,1000,1000,1000,1000,,,,,,,,
140492827,0.0548298,1.46,0.07470644,-2.23,0.08481605,92.66,1000,1000,1000,1000,,,,,,,,
140705544,0.1356935,1.46,-0.01750644,-2.23,0.01622585,92.66,1000,1000,1000,1000,,,,,,,,
140805598,-0.0465216,1.46,0.108285,-2.22,-0.01729344,92.66,1000,1000,1000,1000,,,,,,,,
140905591,-0.004179515,1.46,0.1066993,-2.21,0.08132681,92.65,1000,1000,1000,1000,,,,,,,,
141006151,0.04971436,1.47,0.1134538,-2.21,-0.01418183,92.66,1000,1000,1000,1000,,,,,,,,
141105811,0.0366407,1.46,0.07894129,-2.21,-0.003024678,92.65,1000,1000,1000,1000,,,,,,,,
141205852,0.1251648,1.46,0.07434271,-2.21,0.05711753,92.65,1000,1000,1000,1000,,,,,,,,
141305885,-0.009875066,1.46,0.1113959,-2.21,0.001418153,92.65,1000,1000,1000,1000,,,,,,,,
141405892,-0.02077132,1.47,0.07868321,-2.2,0.06760888,92.65,1000,1000,1000,1000,,,,,,,,
141505890,-0.01559328,1.47,0.08404753,-2.2,-0.02832314,92.65,1000,1000,1000,1000,,,,,,,,
141605866,0.07726818,1.47,0.1049571,-2.19,0.05951476,92.65,1000,1000,1000,1000,,,,,,,,
141705995,0.1068705,1.47,0.06336924,-2.19,0.01377111,92.65,1000,1000,1000,1000,,,,,,,,
141805950,0.05914633,1.48,0.06654677,-2.18,0.1318057,92.65,1000,1000,1000,1000,,,,,,,,
141905944,-0.0358221,1.48,0.09354032,-2.17,-0.003378516,92.65,1000,1000,1000,1000,,,,,,,,
142005970,0.005323418,1.48,0.1673859,-2.16,0.14585,92.64,1000,1000,1000,1000,,,,,,,,
142105950,0.06098526,1.49,0.0772112,-2.15,-0.0729415,92.64,1000,1000,1000,1000,,,,,,,,
142205912,0.1344943,1.5,0.1174429,-2.15,0.1013579,92.64,1000,1000,1000,1000,,,,,,,,
142305916,0.05654075,1.5,0.07605311,-2.14,-0.06637203,92.64,1032,1032,1032,1032,,,,,,,,
142405899,0.123662,1.51,0.2172512,-2.13,0.3690315,92.64,1063,1063,1063,1063,,,,,,,,
142505905,0.2929311,1.52,0.4408351,-2.12,0.2009077,92.65,1095,1095,1095,1095,,,,,,,,
142605906,-1.591745,1.52,-0.7481387,-2.12,-0.8446317,92.61,1100,1100,1100,1100,,,,,,,,
142705899,2.048327,1.54,2.018602,-2.1,1.547883,92.67,1100,1100,1100,1100,,,,,,,,
142805968,-1.947901,1.52,0.2079026,-2.11,-0.7520911,92.62,1100,1100,1100,1100,,,,,,,,
142905911,3.714606,1.56,3.736418,-2.08,-1.547105,92.64,1100,1100,1100,1100,,,,,,,,
143005911,-2.181245,1.53,-0.5646442,-2.09,-2.621184,92.62,1100,1100,1100,1100,,,,,,,,
143105959,-5.003124,1.54,-6.87312,-2.12,-2.234521,92.65,1100,1100,1100,1100,,,,,,,,
143205949,9.173408,1.62,6.873469,-2.02,3.256822,92.65,1100,1100,1100,1100,,,,,,,,
143305852,-6.678991,1.55,-0.7808629,-2.06,-1.849963,92.64,1100,1100,1100,1100,,,,,,,,
143405897,5.830075,1.64,1.770653,-2.02,5.370908,92.69,1100,1100,1100,1100,,,,,,,,
143505953,-10.95593,1.54,-7.745893,-2.07,-1.965061,92.65,1100,1100,1100,1100,,,,,,,,
143605886,2.350857,1.61,0.1030809,-2.04,-1.083178,92.65,1100,1100,1100,1100,,,,,,,,
143705973,-1.172692,1.62,-0.327153,-2,0.4998546,92.66,1100,1100,1100,1100,,,,,,,,
143805958,-4.132881,1.59,-5.668927,-2.05,-4.905264,92.65,1100,1100,1100,1100,,,,,,,,
143905976,3.940015,1.62,3.299165,-2.01,-1.193048,92.64,1100,1100,1100,1100,,,,,,,,
144005906,4.364788,1.68,4.739201,-1.95,-0.1983413,92.68,1100,1100,1100,1100,,,,,,,,
144105843,-2.472268,1.63,-5.889339,-2.01,-2.351924,92.65,1100,1100,1100,1100,,,,,,,,
144205858,6.735095,1.67,10.00539,-1.94,-1.014786,92.66,1100,1100,1100,1100,,,,,,,,
144305949,7.4614,1.72,4.224356,-1.9,2.737375,92.69,1100,1100,1100,1100,,,,,,,,
144405957,-5.311689,1.67,-1.77374,-1.95,-0.8521997,92.67,1100,1100,1100,1100,,,,,,,,
144505932,6.614818,1.71,5.962518,-1.9,2.032526,92.68,1100,1100,1100,1100,,,,,,,,
144605956,1.243766,1.74,2.046842,-1.88,5.050534,92.71,1100,1100,1100,1100,,,,,,,,
144705887,-6.569605,1.68,-6.276295,-1.92,0.06527369,92.7,1100,1100,1100,1100,,,,,,,,
144805845,-0.3263082,1.71,1.0715,-1.89,0.4266852,92.68,1100,1100,1100,1100,,,,,,,,
144905866,1.766872,1.74,1.652785,-1.86,3.856013,92.72,1100,1100,1100,1100,,,,,,,,
145005897,-7.720698,1.7,-7.087812,-1.9,-2.490471,92.69,1100,1100,1100,1100,,,,,,,,
145105885,-2.74076,1.69,-4.269817,-1.91,-1.588793,92.69,1100,1100,1100,1100,,,,,,,,
145205891,3.618313,1.77,6.553615,-1.81,-0.8617123,92.7,1100,1100,1100,1100,,,,,,,,
145305992,-2.848221,1.74,-8.336395,-1.87,-1.3909,92.7,1100,1100,1100,1100,,,,,,,,
145405958,-2.120877,1.72,1.789731,-1.86,-5.521062,92.68,1100,1100,1100,1100,,,,,,,,
145505978,9.273141,1.82,4.414779,-1.77,2.974439,92.71,1100,1100,1100,1100,,,,,,,,
145605861,-3.356126,1.79,-1.226064,-1.79,-1.096368,92.72,1100,1100,1100,1100,,,,,,,,
145705890,3.502676,1.78,1.964189,-1.79,-1.837672,92.69,1100,1100,1100,1100,,,,,,,,
145805890,6.844844,1.84,8.400561,-1.73,3.293776,92.73,1100,1100,1100,1100,,,,,,,,
145905992,-0.8011803,1.82,-1.315886,-1.75,2.232414,92.74,1100,1100,1100,1100,,,,,,,,
146005967,-3.292947,1.8,-2.091645,-1.77,-0.5144664,92.72,1100,1100,1100,1100,,,,,,,,
146105888,4.511473,1.84,5.694551,-1.71,3.854756,92.74,1100,1100,1100,1100,,,,,,,,
146205940,-3.325355,1.83,-2.698646,-1.72,2.189757,92.75,1100,1100,1100,1100,,,,,,,,
146305846,-8.633688,1.77,-9.857991,-1.78,-0.8459859,92.74,1100,1100,1100,1100,,,,,,,,
146406008,1.190924,1.83,5.125102,-1.68,-1.487882,92.73,1100,1100,1100,1100,,,,,,,,
146505953,-1.208897,1.85,-6.302075,-1.71,0.9437162,92.76,1100,1100,1100,1100,,,,,,,,
146605884,-6.077043,1.8,-2.423206,-1.72,-6.730733,92.72,1100,1100,1100,1100,,,,,,,,
146705911,7.002365,1.87,2.805989,-1.67,-0.07917823,92.74,1100,1100,1100,1100,,,,,,,,
146805882,1.737841,1.89,4.895553,-1.61,-0.589475,92.76,1100,1100,1100,1100,,,,,,,,
146905907,-0.4610257,1.86,-5.667749,-1.67,-1.934122,92.75,1100,1100,1100,1100,,,,,,,,
147005891,3.403617,1.88,7.720348,-1.63,-1.610324,92.75,1100,1100,1100,1100,,,,,,,,
147105881,8.85499,1.94,6.128561,-1.58,3.38439,92.78,1100,1100,1100,1100,,,,,,,,
147205881,-4.421301,1.9,-3.256203,-1.62,0.6460401,92.79,1100,1100,1100,1100,,,,,,,,
147305954,2.114153,1.89,2.45546,-1.6,0.376619,92.77,1100,1100,1100,1100,,,,,,,,
147405906,4.692927,1.94,6.204567,-1.55,4.977632,92.81,1100,1100,1100,1100,,,,,,,,
147505958,-4.038326,1.91,-4.452494,-1.59,3.713676,92.82,1100,1100,1100,1100,,,,,,,,
147605933,-4.815578,1.88,-3.240257,-1.6,-1.490299,92.79,1100,1100,1100,1100,,,,,,,,
147705887,3.754366,1.95,3.48753,-1.54,2.167283,92.82,1100,1100,1100,1100,,,,,,,,
147805857,-6.424444,1.91,-7.088706,-1.57,-1.889646,92.81,1100,1100,1100,1100,,,,,,,,
147905878,-4.090144,1.88,-4.820217,-1.61,-3.986813,92.79,1100,1100,1100,1100,,,,,,,,
148007361,2.318565,1.94,4.885429,-1.52,-2.974781,92.79,1100,1100,1100,1100,,,,,,,,
148107413,2.24089,1.98,-2.028718,-1.52,1.781896,92.82,1100,1100,1100,1100,,,,,,,,
148207409,-6.067347,1.91,-3.169563,-1.54,-6.536042,92.79,1100,1100,1100,1100,,,,,,,,
148307344,5.86797,1.96,2.234517,-1.53,-1.506893,92.8,1100,1100,1100,1100,,,,,,,,
148407561,4.224065,1.99,7.524648,-1.45,-0.3772696,92.82,1100,1100,1100,1100,,,,,,,,
148507532,0.1771386,1.97,-6.288066,-1.51,-0.6687074,92.82,1100,1100,1100,1100,,,,,,,,
148607371,1.236188,1.95,6.592508,-1.47,-3.012657,92.81,1100,1100,1100,1100,,,,,,,,
148707370,8.27534,2.04,3.813222,-1.42,5.501771,92.86,1100,1100,1100,1100,,,,,,,,
148807359,-6.480615,1.97,-2.395917,-1.45,0.007401655,92.85,1100,1100,1100,1100,,,,,,,,
148907377,3.851362,2.01,1.376931,-1.45,1.701563,92.84,1100,1100,1100,1100,,,,,,,,
149007396,1.779277,2.03,5.787797,-1.39,4.186886,92.87,1100,1100,1100,1100,,,,,,,,
149107576,-3.482206,2,-6.240785,-1.44,2.195098,92.87,1100,1100,1100,1100,,,,,,,,
149207406,-5.905449,1.97,-1.946488,-1.44,-0.6424143,92.84,1100,1100,1100,1100,,,,,,,,
149307526,5.764853,2.05,4.489235,-1.37,3.421996,92.87,1100,1100,1100,1100,,,,,,,,
149407495,-8.969682,1.99,-7.809544,-1.42,1.077264,92.88,1100,1100,1100,1100,,,,,,,,
149507390,-3.938539,1.99,-4.718617,-1.43,-2.899309,92.85,1100,1100,1100,1100,,,,,,,,
149607432,1.296764,2.05,2.527151,-1.36,1.18679,92.86,1100,1100,1100,1100,,,,,,,,
149707495,-3.614881,2.03,-5.254111,-1.38,-3.112541,92.86,1100,1100,1100,1100,,,,,,,,
149807388,-4.026479,1.99,-4.112066,-1.4,-4.445321,92.84,1100,1100,1100,1100,,,,,,,,
149907505,7.286692,2.08,7.077223,-1.31,-1.127908,92.86,1100,1100,1100,1100,,,,,,,,
150007524,-2.391994,2.06,-5.151634,-1.34,-0.7537954,92.87,1100,1100,1100,1100,,,,,,,,
150107395,0.09351835,2.03,1.00136,-1.36,-5.258403,92.85,1100,1100,1100,1100,,,,,,,,
150207564,-0.758248,2.08,2.849203,-1.3,0.7837561,92.89,1000,1000,1000,1000,,,,,,,,
150307384,0.2394296,2.09,-0.5256193,-1.32,0.4953109,92.88,1000,1000,1000,1000,,,,,,,,
150407392,0.7340618,2.09,1.085769,-1.32,0.3491635,92.89,1000,1000,1000,1000,,,,,,,,
150507371,-0.1714844,2.09,0.04057335,-1.31,0.2216603,92.89,1000,1000,1000,1000,,,,,,,,
150607391,0.07023852,2.1,0.2306341,-1.3,0.01061919,92.88,1000,1000,1000,1000,,,,,,,,
150707532,-0.03779721,2.11,0.1498457,-1.31,-0.125881,92.87,1000,1000,1000,1000,,,,,,,,
150807552,0.1307103,2.12,0.03515765,-1.32,0.2338568,92.89,1000,1000,1000,1000,,,,,,,,
150907501,0.05428426,2.13,0.01034171,-1.34,-0.194834,92.87,1000,1000,1000,1000,,,,,,,,
151007417,0.1526107,2.14,-0.01225501,-1.35,0.3444425,92.88,1000,1000,1000,1000,,,,,,,,
151107522,0.2092316,2.14,0.09603146,-1.36,-0.1649934,92.88,1000,1000,1000,1000,,,,,,,,
151207498,0.07443604,2.13,0.08258459,-1.36,0.3290475,92.89,1000,1000,1000,1000,,,,,,,,
151307384,0.1265366,2.12,0.0668053,-1.36,-0.1880954,92.9,1000,1000,1000,1000,,,,,,,,
151407520,0.1626097,2.12,0.1709241,-1.35,0.2245939,92.89,1000,1000,1000,1000,,,,,,,,
151507418,-4.980433,2.17,-4.014685,-1.23,-0.933333,92.82,1000,1000,1000,1000,,,,,,,,
151607412,6.405271,1.93,5.835154,-1.51,1.862961,92.88,1000,1000,1000,1000,,,,,,,,
151707384,-3.072844,1.83,2.140468,-1.41,-1.577383,92.94,1000,1000,1000,1000,,,,,,,,
151807545,-4.91057,1.92,-2.545786,-1.27,-0.2607462,92.81,1000,1000,1000,1000,,,,,,,,
151907388,-0.5946718,1.88,2.198472,-1.27,2.518594,92.94,1000,1000,1000,1000,,,,,,,,
152007323,-4.444037,1.79,-1.200445,-1.13,-5.138991,92.91,1000,1000,1000,1000,,,,,,,,
152107643,-1.028765,1.82,3.141832,-0.89,-1.594325,92.4,1000,1000,1000,1000,,,,,,,,
152207611,-1.356506,1.83,0.05255214,-0.94,-0.5040257,92.27,1000,1000,1000,1000,,,,,,,,
152307748,1.143906,1.81,2.800783,-0.98,1.774278,92.48,1000,1000,1000,1000,,,,,,,,
152407722,0.7179124,1.82,0.6720841,-0.99,-0.6627662,92.49,1000,1000,1000,1000,,,,,,,,
152507647,0.3417619,1.83,0.2332603,-1,0.1954457,92.53,1000,1000,1000,1000,,,,,,,,
152607739,0.7305088,1.85,-0.4358978,-1,1.219177,92.52,1000,1000,1000,1000,,,,,,,,
152707646,0.8642918,1.86,-0.3301739,-1.01,0.1755562,92.64,1000,1000,1000,1000,,,,,,,,
152807621,0.5807351,1.87,-0.3670226,-1.04,-0.000747594,92.6,1000,1000,1000,1000,,,,,,,,
152907862,-0.3061622,1.86,-0.4216468,-1.05,1.161121,92.67,1000,1000,1000,1000,,,,,,,,
153007771,-0.6176094,1.85,-0.6595489,-1.03,0.6069933,92.68,1000,1000,1000,1000,,,,,,,,
153107676,-0.743802,1.87,-0.465632,-1.04,1.244622,92.8,1000,1000,1000,1000,,,,,,,,
153207620,-0.7804536,1.86,-0.04341396,-1.06,-0.3647,92.72,1000,1000,1000,1000,,,,,,,,
153307743,-0.1131645,1.87,-0.5364369,-1.05,1.408514,92.79,1000,1000,1000,1000,,,,,,,,
153407592,2.367175,1.79,-6.796612,-1.34,1.542337,93.08,1000,1000,1000,1000,,,,,,,,
153507590,3.732893,1.97,2.256618,-1.27,-4.083261,93.01,1000,1000,1000,1000,,,,,,,,
153607661,3.884166,1.88,2.541431,-1.34,2.926947,92.94,1000,1000,1000,1000,,,,,,,,
153707621,1.285208,1.81,0.5380142,-1.4,-2.055847,93.1,1000,1000,1000,1000,,,,,,,,
153807728,-0.8676669,1.85,-1.069306,-1.38,1.074108,92.91,1000,1000,1000,1000,,,,,,,,
153907749,-0.722166,1.84,-0.5786232,-1.36,0.2592643,93.12,1000,1000,1000,1000,,,,,,,,
154007760,-3.795342,1.48,-6.302023,-1.69,-5.881805,92.64,1000,1000,1000,1000,,,,,,,,
154107567,0.06744146,1.53,-5.987501,-1.76,11.8805,93.49,1000,1000,1000,1000,,,,,,,,
154207605,-4.317057,1.64,-8.860512,-1.66,-13.00856,93.25,1000,1000,1000,1000,,,,,,,,
154307612,-6.222341,1.11,-8.624517,-2.34,19.55816,93.44,1000,1000,1000,1000,,,,,,,,
154407809,-4.045936,0.52,0.3196933,-2.88,12.85289,95.34,1000,1000,1000,1000,,,,,,,,
154507758,-18.34689,-0.54,-7.264401,-3.25,18.22449,96.47,1000,1000,1000,1000,,,,,,,,
154607609,-17.21319,-2.39,3.706416,-3.44,11.60606,98.27,1000,1000,1000,1000,,,,,,,,
154707774,-26.55328,-5.02,2.352624,-2.85,13.93507,99.4,1000,1000,1000,1000,,,,,,,,
154807636,-20.38619,-7.62,12.26406,-1.85,24.04482,101.1,1000,1000,1000,1000,,,,,,,,
154907577,-11.96345,-9.41,17.06132,0.13,29.34741,103.8,1000,1000,1000,1000,,,,,,,,
155007596,31.05696,-8.18,13.07136,2.4,30.20213,106.27,1000,1000,1000,1000,,,,,,,,
155107768,24.4408,-4.87,-30.29372,1.84,38.78217,109.98,1000,1000,1000,1000,,,,,,,,
155207601,25.90551,-2.79,-20.43178,-1.2,40.04578,114.15,1000,1000,1000,1000,,,,,,,,
155307649,28.55203,-0.1,1.018102,-1.71,42.57906,118.21,1000,1000,1000,1000,,,,,,,,
155407819,22.93887,2.02,-20.54025,-2.44,67.41741,123.45,1000,1000,1000,1000,,,,,,,,
155507622,38.2037,4.91,-27.92219,-5.36,79.78689,131.09,1000,1000,1000,1000,,,,,,,,
155607722,24.00336,7.64,-12.33804,-8.48,54.01067,137.91,1000,1000,1000,1000,,,,,,,,
155707579,-8.262268,7.72,20.82376,-8.49,42.55162,142.49,1000,1000,1000,1000,,,,,,,,
155807599,-31.10673,5.08,43.74768,-5.54,64.51607,148.42,1000,1000,1000,1000,,,,,,,,
155907621,-38.90882,0.75,29.28061,-2.52,95.10352,157.12,1000,1000,1000,1000,,,,,,,,
156007738,-12.6779,-1.77,45.40344,1.33,87.01256,166.39,1000,1000,1000,1000,,,,,,,,
156107630,-11.21848,-2.34,16.10596,4.58,71.29839,174.32,1000,1000,1000,1000,,,,,,,,
156207735,-8.516716,-2.86,3.647502,5.96,47.88949,180.1,1000,1000,1000,1000,,,,,,,,
156307655,-7.010202,-3.25,-14.21254,5.74,36.61304,184.16,1000,1000,1000,1000,,,,,,,,
156407635,-5.11798,-3.72,-15.65999,4.25,20.15041,187.02,1000,1000,1000,1000,,,,,,,,
156507805,6.615971,-3.58,-8.966462,3.07,7.744575,188.43,1000,1000,1000,1000,,,,,,,,
156607616,7.148197,-2.71,-6.95002,2.47,-11.0365,188.18,1000,1000,1000,1000,,,,,,,,
156707622,-6.395443,-2.74,-19.20798,0.8,-19.16093,186.79,1000,1000,1000,1000,,,,,,,,
156807596,8.828955,-2.66,-14.60778,-0.79,-11.9591,185.13,1000,1000,1000,1000,,,,,,,,
156907621,20.45464,-0.96,-16.69558,-2.27,3.662191,184.83,1000,1000,1000,1000,,,,,,,,
157007634,18.65997,0.99,-16.72486,-3.68,13.87183,185.72,1000,1000,1000,1000,,,,,,,,
157107621,1.237872,2.05,-5.208778,-4.04,3.736001,186.53,1000,1000,1000,1000,,,,,,,,
157207627,-37.40903,-0.3,-22.49396,-6.02,1.272708,186.74,1000,1000,1000,1000,,,,,,,,
157307737,-12.85247,-3.01,7.749859,-6.74,-6.184567,186.58,1000,1000,1000,1000,,,,,,,,
157407736,16.16742,-2.45,19.04693,-5.06,-20.06921,185.02,1000,1000,1000,1000,,,,,,,,
157507793,20.85921,-0.48,17.53055,-3.64,-36.632,182,1000,1000,1000,1000,,,,,,,,
157607618,7.577834,1.08,4.537569,-2.27,-35.19201,178.05,1000,1000,1000,1000,,,,,,,,
157707649,14.66942,1.96,-2.50133,-2.45,-12.68703,175.94,1000,1000,1000,1000,,,,,,,,
157807611,-19.22725,2.56,-38.22596,-3.97,-10.40302,174.79,1000,1000,1000,1000,,,,,,,,
157907577,-64.23808,-2.37,-59.09752,-9.67,19.32636,175.1,1000,1000,1000,1000,,,,,,,,
158007584,-51.49331,-9.43,-42.17831,-14.29,59.15934,180.32,1000,1000,1000,1000,,,,,,,,
158107724,99.59982,-3.64,120.8598,-6.23,24.87789,183.42,1000,1000,1000,1000,,,,,,,,
158207595,-78.98699,-3.33,-51.66997,-3.79,2.39723,184.63,1000,1000,1000,1000,,,,,,,,
158307729,21.01794,-5.87,10.20465,-4.45,-18.93914,184.03,1000,1000,1000,1000,,,,,,,,
158407758,85.52539,-3.9,11.84722,-3.69,32.78873,184.01,1000,1000,1000,1000,,,,,,,,
158507637,7.426015,-1.29,22.88722,-1.74,25.7048,188.73,1000,1000,1000,1000,,,,,,,,
158607765,13.7363,-1.04,9.19066,-2.39,-12.69503,188.87,1000,1000,1000,1000,,,,,,,,
158707568,-11.01896,0.26,-7.271461,-1.39,-4.106326,187.14,1000,1000,1000,1000,,,,,,,,
158807604,5.108981,0.29,7.866897,-1.26,9.076963,188.31,1000,1000,1000,1000,,,,,,,,
158907626,8.178237,0.03,9.157212,-1.61,-12.18336,187.5,1000,1000,1000,1000,,,,,,,,
159007778,-1.094483,-0.01,0.7571366,-1.63,12.83203,187.86,1000,1000,1000,1000,,,,,,,,
159107625,-5.055801,0.11,-5.294605,-1.51,-11.15288,187.81,1000,1000,1000,1000,,,,,,,,
159207720,-2.46906,0.19,-1.079231,-1.45,8.349792,187.54,1000,1000,1000,1000,,,,,,,,
159307614,1.234787,0.2,1.22354,-1.41,-5.418613,187.98,1000,1000,1000,1000,,,,,,,,
159407716,1.468386,0.2,1.629876,-1.46,2.367565,187.45,1000,1000,1000,1000,,,,,,,,
159507729,0.9057537,0.17,0.693696,-1.44,-0.1043473,187.96,1000,1000,1000,1000,,,,,,,,
159607743,0.1033019,0.22,-0.1034333,-1.44,-1.602389,187.46,1000,1000,1000,1000,,,,,,,,
159707722,-0.3517873,0.21,-0.4682962,-1.41,2.811579,187.86,1000,1000,1000,1000,,,,,,,,
159807614,-0.08139525,0.26,-0.447183,-1.39,-3.468829,187.51,1000,1000,1000,1000,,,,,,,,
159907767,-0.1440698,0.27,-0.00537856,-1.36,3.953268,187.75,1000,1000,1000,1000,,,,,,,,
160007643,0.2903385,0.29,0.06252334,-1.35,-4.034553,187.55,1000,1000,1000,1000,,,,,,,,
160107763,0.03428477,0.3,0.2802043,-1.32,4.018053,187.65,1000,1000,1000,1000,,,,,,,,
160207580,0.5143408,0.32,0.1572849,-1.31,-3.695617,187.58,1000,1000,1000,1000,,,,,,,,
160307592,-0.009127573,0.34,0.3651541,-1.28,3.417882,187.57,1000,1000,1000,1000,,,,,,,,
160407728,0.2852829,0.36,0.09719108,-1.26,-2.841236,187.58,1000,1000,1000,1000,,,,,,,,
160507651,-0.1098803,0.38,0.2617119,-1.24,2.435197,187.5,1000,1000,1000,1000,,,,,,,,
160607770,0.1230382,0.39,0.03937889,-1.21,-1.922354,187.57,1000,1000,1000,1000,,,,,,,,
160707752,-0.0593788,0.42,0.1418611,-1.19,1.509704,187.45,1000,1000,1000,1000,,,,,,,,
160807750,0.1300723,0.44,0.04695477,-1.16,-1.108825,187.54,1000,1000,1000,1000,,,,,,,,
160907599,0.09296006,0.47,0.09520232,-1.14,0.7025538,187.4,1000,1000,1000,1000,,,,,,,,
161007728,0.09085798,0.48,0.1587765,-1.11,-0.3468729,187.5,1000,1000,1000,1000,,,,,,,,
161107703,0.1056131,0.51,0.223679,-1.09,0.1116542,187.37,1000,1000,1000,1000,,,,,,,,
161207605,0.1300647,0.52,0.2260996,-1.06,0.119676,187.46,1000,1000,1000,1000,,,,,,,,
161307619,0.2074887,0.55,0.124328,-1.04,-0.3358347,187.34,1000,1000,1000,1000,,,,,,,,
161407650,0.07445604,0.56,0.2097053,-1.02,0.5773999,187.42,1000,1000,1000,1000,,,,,,,,
161507642,0.1492144,0.59,0.178155,-0.99,-0.5789018,187.32,1000,1000,1000,1000,,,,,,,,
161607644,-0.004542756,0.61,0.2400565,-0.96,0.7075164,187.37,1000,1000,1000,1000,,,,,,,,
161707821,0.1147049,0.63,0.09587421,-0.93,-0.7489774,187.29,1000,1000,1000,1000,,,,,,,,
161807565,0.04153367,0.65,0.1772259,-0.91,0.7649435,187.33,1000,1000,1000,1000,,,,,,,,
161907794,0.08687139,0.68,0.1408291,-0.89,-0.7830658,187.27,1000,1000,1000,1000,,,,,,,,
162007641,0.06182999,0.7,0.1397076,-0.86,0.7349253,187.29,1000,1000,1000,1000,,,,,,,,
162107624,0.18268,0.73,0.1227028,-0.84,-0.6534997,187.25,1000,1000,1000,1000,,,,,,,,
162207616,0.1405249,0.75,0.2529656,-0.81,0.7176898,187.26,1000,1000,1000,1000,,,,,,,,
162307612,0.1022056,0.77,0.1986697,-0.79,-0.6409504,187.23,1000,1000,1000,1000,,,,,,,,
162407625,0.09399325,0.79,0.2267763,-0.77,0.5974224,187.23,1000,1000,1000,1000,,,,,,,,
162507588,0.05324769,0.82,0.1900068,-0.74,-0.5960686,187.21,1000,1000,1000,1000,,,,,,,,
162607654,0.06550319,0.84,0.1991689,-0.72,0.6054009,187.19,1000,1000,1000,1000,,,,,,,,
162707618,0.1711753,0.86,0.1870659,-0.69,-0.4384691,187.19,1000,1000,1000,1000,,,,,,,,
162807863,0.04232105,0.88,0.1697428,-0.67,0.4235887,187.17,1000,1000,1000,1000,,,,,,,,
162907735,0.03896016,0.91,0.2688573,-0.64,-0.3274179,187.17,1000,1000,1000,1000,,,,,,,,
163010116,0.1299851,0.94,0.149657,-0.62,0.3129611,187.15,1000,1000,1000,1000,,,,,,,,
163109798,0.1446315,0.96,0.1602419,-0.6,-0.2787139,187.15,1000,1000,1000,1000,,,,,,,,
163209782,0.1420369,0.99,0.1874253,-0.58,0.2622437,187.12,1000,1000,1000,1000,,,,,,,,
163309789,0.07279947,1.01,0.2011147,-0.56,-0.1562561,187.13,1000,1000,1000,1000,,,,,,,,
163409839,0.09758078,1.03,0.2376283,-0.54,0.1851652,187.1,1000,1000,1000,1000,,,,,,,,
163509808,0.1977646,1.06,0.2553219,-0.52,-0.1311289,187.11,1000,1000,1000,1000,,,,,,,,
163609738,0.05451505,1.08,0.1551218,-0.5,0.04168227,187.08,1000,1000,1000,1000,,,,,,,,
163709905,0.1613909,1.1,0.14122,-0.48,-0.04696838,187.09,1000,1000,1000,1000,,,,,,,,
163809789,0.1911952,1.12,0.1594494,-0.46,0.08465401,187.07,1000,1000,1000,1000,,,,,,,,
163909939,0.1705847,1.14,0.156546,-0.44,0.01018181,187.08,1000,1000,1000,1000,,,,,,,,
164009791,0.1762181,1.16,0.1653415,-0.43,0.0217298,187.06,1000,1000,1000,1000,,,,,,,,
164109796,0.1043998,1.18,0.2665046,-0.42,0.07294277,187.07,1000,1000,1000,1000,,,,,,,,
164209777,0.09006713,1.2,0.1663249,-0.4,0.02424806,187.05,1000,1000,1000,1000,,,,,,,,
164309753,0.09921814,1.22,0.2260157,-0.38,0.07669982,187.06,1000,1000,1000,1000,,,,,,,,
164409757,0.08995634,1.24,0.1322935,-0.36,0.001570763,187.05,1000,1000,1000,1000,,,,,,,,
164509809,0.1325537,1.27,0.189942,-0.35,0.1225633,187.05,1000,1000,1000,1000,,,,,,,,
164609839,0.1269614,1.28,0.2037153,-0.34,-0.1038052,187.04,1000,1000,1000,1000,,,,,,,,
164709783,0.153722,1.3,0.2177759,-0.32,0.07011942,187.05,1000,1000,1000,1000,,,,,,,,
164809933,0.10165,1.31,0.1817584,-0.31,-0.04761319,187.04,1000,1000,1000,1000,,,,,,,,
164909888,0.1326112,1.33,0.1674099,-0.3,0.09602821,187.04,1000,1000,1000,1000,,,,,,,,
165009815,0.1440574,1.34,0.1623334,-0.28,-0.02989235,187.03,1000,1000,1000,1000,,,,,,,,
268124763,-0.02814451,1.77,0.05130107,0.44,-0.03438143,183.92,1000,1000,1000,1000,,,,,,,,
268224583,0.1227304,1.77,0.04246408,0.45,-0.06230206,183.92,1000,1000,1000,1000,,,,,,,,
268324520,0.04078073,1.77,0.05530121,0.46,-0.04538888,183.92,1000,1000,1000,1000,,,,,,,,
268424786,0.05006491,1.77,0.04052735,0.46,-0.1280401,183.92,1000,1000,1000,1000,,,,,,,,
268524520,0.06749073,1.77,0.02246065,0.46,-0.001587946,183.92,1000,1000,1000,1000,,,,,,,,
268624424,0.03287666,1.77,0.009545456,0.46,0.02286181,183.93,1000,1000,1000,1000,,,,,,,,
268724879,-0.01382361,1.77,0.02559192,0.45,-0.06119467,183.93,1000,1000,1000,1000,,,,,,,,
268824953,0.1114992,1.77,-0.02413549,0.45,-0.04373376,183.93,1000,1000,1000,1000,,,,,,,,
268924963,-0.009854549,1.77,0.031925,0.45,-0.07565968,183.93,1000,1000,1000,1000,,,,,,,,
269024806,0.005377627,1.78,0.0666906,0.45,0.01467091,183.94,1000,1000,1000,1000,,,,,,,,
269124794,0.01289737,1.78,-0.002287046,0.46,-0.05297397,183.94,1000,1000,1000,1000,,,,,,,,
269224561,0.04598323,1.78,0.06496214,0.47,-0.09047747,183.94,1000,1000,1000,1000,,,,,,,,
269324536,0.09741746,1.79,0.007192349,0.47,0.006275613,183.94,1000,1000,1000,1000,,,,,,,,
269424789,0.09182682,1.79,0.007814963,0.47,-0.02472471,183.94,1000,1000,1000,1000,,,,,,,,
269524850,-0.07072309,1.79,0.006785419,0.47,-0.008150311,183.94,1000,1000,1000,1000,,,,,,,,
269624864,0.0895875,1.79,0.03222803,0.46,-0.00090409,183.95,1000,1000,1000,1000,,,,,,,,
269724864,0.03904571,1.79,-0.01667222,0.45,-0.06653026,183.95,1000,1000,1000,1000,,,,,,,,
269824934,-0.08431975,1.79,0.05960674,0.45,0.01407966,183.95,1000,1000,1000,1000,,,,,,,,
269925226,0.03996533,1.79,0.001670782,0.45,-0.07144877,183.95,1000,1000,1000,1000,,,,,,,,
270025186,-0.07340743,1.79,0.1122658,0.45,-0.05913068,183.95,1000,1000,1000,1000,,,,,,,,
270124824,-0.04158267,1.79,0.002370983,0.44,-0.113779,183.95,1003,1003,1003,1003,,,,,,,,
270224824,0.03976944,1.79,0.03645789,0.44,0.03269501,183.96,1019,1019,1019,1019,,,,,,,,
270324897,-0.0469607,1.79,0.01105968,0.44,-0.07661022,183.96,1051,1051,1051,1051,,,,,,,,
270425144,0.2379488,1.8,-0.8560536,0.43,-0.8687342,183.91,1082,1082,1082,1082,,,,,,,,
270524886,0.8069736,1.78,-1.751628,0.43,1.434041,184.09,1100,1100,1100,1100,,,,,,,,
270624833,-0.5946806,1.79,-1.059049,0.45,0.5538185,183.84,1100,1100,1100,1100,,,,,,,,
270724874,-1.464355,1.77,0.001161612,0.43,0.00410565,184.05,1100,1100,1100,1100,,,,,,,,
270824864,0.193241,1.77,-0.02026592,0.45,-1.106063,183.83,1100,1100,1100,1100,,,,,,,,
270925186,-0.5590948,1.77,1.70067,0.45,4.347178,184.02,1100,1100,1100,1100,,,,,,,,
271024854,-1.959592,1.76,0.3712489,0.47,-3.261205,183.91,1100,1100,1100,1100,,,,,,,,
271124930,1.942549,1.77,-3.340208,0.44,2.773132,183.9,1100,1100,1100,1100,,,,,,,,
271224994,0.1592048,1.78,1.497567,0.48,0.08733876,184.08,1100,1100,1100,1100,,,,,,,,
271324900,1.522996,1.77,0.3554705,0.48,-0.575886,183.92,1100,1100,1100,1100,,,,,,,,
271425194,0.3415281,1.77,-0.8693478,0.48,0.7361609,184.08,1100,1100,1100,1100,,,,,,,,
271524883,0.8305089,1.79,-0.2198704,0.48,0.9015643,183.93,1100,1100,1100,1100,,,,,,,,
271624910,-0.03814156,1.78,0.4465367,0.48,2.062756,184.03,1100,1100,1100,1100,,,,,,,,
271724809,-1.481585,1.79,-0.3960578,0.49,-2.63087,183.95,1100,1100,1100,1100,,,,,,,,
271824877,-0.02017542,1.8,-0.7449813,0.48,-1.046363,183.99,1100,1100,1100,1100,,,,,,,,
271925180,-1.898826,1.79,-0.1099164,0.49,-2.515179,184,1100,1100,1100,1100,,,,,,,,
272024841,0.5833738,1.79,-4.038658,0.46,-0.09735174,183.97,1100,1100,1100,1100,,,,,,,,
272124866,0.5049849,1.79,0.8651544,0.48,-0.2050503,184.02,1100,1100,1100,1100,,,,,,,,
272224921,-2.003114,1.78,0.287177,0.5,1.957859,183.97,1100,1100,1100,1100,,,,,,,,
272324864,0.4836687,1.79,0.1105246,0.49,1.576018,184.03,1100,1100,1100,1100,,,,,,,,
272425213,-0.2540514,1.81,-0.4421096,0.5,1.670485,183.97,1100,1100,1100,1100,,,,,,,,
272524940,-0.6599893,1.78,-0.9590967,0.49,2.148782,184.02,1100,1100,1100,1100,,,,,,,,
272624830,-0.5811517,1.78,0.7282797,0.48,1.223311,183.98,1100,1100,1100,1100,,,,,,,,
272724945,-0.2907172,1.79,0.8945814,0.51,1.337485,184,1100,1100,1100,1100,,,,,,,,
272824859,0.5535421,1.8,1.258895,0.51,-0.1482033,183.98,1100,1100,1100,1100,,,,,,,,
272925161,0.1242233,1.79,0.5269524,0.51,-0.3410864,183.99,1100,1100,1100,1100,,,,,,,,
273024906,-0.8571976,1.78,-0.3275631,0.5,-1.364987,183.99,1100,1100,1100,1100,,,,,,,,
273124801,-0.9622148,1.78,0.3689892,0.5,-1.15627,183.98,1100,1100,1100,1100,,,,,,,,
273224812,-0.6624252,1.79,1.914739,0.51,-1.906072,184,1100,1100,1100,1100,,,,,,,,
273325208,-1.054725,1.79,1.960024,0.51,-1.598175,183.97,1100,1100,1100,1100,,,,,,,,
273425206,-1.871084,1.78,1.508363,0.53,-2.378616,184.01,1100,1100,1100,1100,,,,,,,,
273524899,1.167909,1.79,0.3593179,0.54,-1.90014,183.98,1100,1100,1100,1100,,,,,,,,
273624988,1.549099,1.79,-2.07269,0.52,-0.5933168,184.01,1100,1100,1100,1100,,,,,,,,
273724874,0.01481713,1.8,0.9516467,0.55,0.2147431,184,1100,1100,1100,1100,,,,,,,,
273824876,0.2561895,1.79,1.364412,0.56,1.409448,184,1100,1100,1100,1100,,,,,,,,
273925779,1.016248,1.79,0.2346209,0.56,0.8793628,184.02,1100,1100,1100,1100,,,,,,,,
274025617,1.206085,1.8,-0.9560622,0.56,2.134089,184,1100,1100,1100,1100,,,,,,,,
274125517,0.9145178,1.81,-1.745116,0.56,2.418291,184.02,1100,1100,1100,1100,,,,,,,,
274225504,0.7157061,1.8,-0.6926202,0.56,2.227333,184,1100,1100,1100,1100,,,,,,,,
274325921,1.165158,1.8,-0.2698483,0.56,2.568712,184.02,1100,1100,1100,1100,,,,,,,,
274426216,1.380997,1.8,-1.262397,0.57,2.106577,184.01,1100,1100,1100,1100,,,,,,,,
274526641,1.073975,1.8,-1.020792,0.57,2.330561,184.02,1100,1100,1100,1100,,,,,,,,
274626504,0.1214905,1.81,1.019601,0.58,1.03041,184.01,1100,1100,1100,1100,,,,,,,,
274726497,0.003794037,1.8,1.93541,0.58,1.456572,184.01,1100,1100,1100,1100,,,,,,,,
274826529,0.3054277,1.8,1.552116,0.6,1.34984,184.03,1100,1100,1100,1100,,,,,,,,
274926719,-1.954932,1.8,1.71985,0.59,0.5385013,184.01,1100,1100,1100,1100,,,,,,,,
275026548,-2.042563,1.81,1.938918,0.59,0.253445,184.02,1100,1100,1100,1100,,,,,,,,
275126425,-1.434591,1.81,1.907786,0.6,0.05233046,184.02,1100,1100,1100,1100,,,,,,,,
275226575,-1.84032,1.82,1.179021,0.61,0.7077333,184.02,1100,1100,1100,1100,,,,,,,,
275326594,-0.82358,1.81,1.902888,0.61,0.7993663,184.03,1100,1100,1100,1100,,,,,,,,
275426940,-1.244341,1.79,2.437617,0.61,0.7470472,184.03,1100,1100,1100,1100,,,,,,,,
275526573,-2.23239,1.82,1.66921,0.63,0.07840772,184.02,1100,1100,1100,1100,,,,,,,,
275626570,-0.8347163,1.82,1.558123,0.62,0.1440578,184.03,1100,1100,1100,1100,,,,,,,,
275726546,-0.09052239,1.82,0.8617857,0.63,-0.4229622,184.02,1100,1100,1100,1100,,,,,,,,
275826528,-1.418376,1.82,-1.005703,0.63,0.7739154,184.03,1100,1100,1100,1100,,,,,,,,
275926797,0.7639624,1.82,0.5719134,0.64,0.8013985,184.02,1100,1100,1100,1100,,,,,,,,
276026557,0.4016548,1.82,0.1109493,0.63,1.859833,184.03,1100,1100,1100,1100,,,,,,,,
276126571,0.4175937,1.81,0.8875422,0.64,1.708296,184.03,1100,1100,1100,1100,,,,,,,,
276226429,-1.424535,1.82,1.375854,0.65,2.642412,184.04,1100,1100,1100,1100,,,,,,,,
276326595,-1.767025,1.81,1.812238,0.66,1.840965,184.04,1100,1100,1100,1100,,,,,,,,
276426887,-2.331575,1.81,1.166363,0.66,1.501344,184.04,1100,1100,1100,1100,,,,,,,,
276526561,-0.5738473,1.81,1.923386,0.68,-0.5502861,184.04,1100,1100,1100,1100,,,,,,,,
276626579,-2.380786,1.8,0.6703641,0.68,-0.2670141,184.02,1100,1100,1100,1100,,,,,,,,
276726579,-1.548869,1.81,-0.05371399,0.68,-2.062201,184.04,1100,1100,1100,1100,,,,,,,,
276826593,-0.2354039,1.81,0.3493679,0.67,-2.77113,184.01,1100,1100,1100,1100,,,,,,,,
276926784,1.721786,1.82,-0.09229031,0.68,-3.379497,184.04,1100,1100,1100,1100,,,,,,,,
277026556,0.6841694,1.83,-1.093318,0.68,-2.800059,184.02,1100,1100,1100,1100,,,,,,,,
277126497,1.137512,1.83,-1.352359,0.69,-2.494349,184.05,1100,1100,1100,1100,,,,,,,,
277226613,2.074502,1.82,-2.306783,0.67,-1.754874,184.03,1100,1100,1100,1100,,,,,,,,
277326552,-0.06123894,1.82,-2.862221,0.67,0.6441867,184.06,1100,1100,1100,1100,,,,,,,,
277426974,0.1172155,1.83,-0.3905035,0.71,1.165885,184.07,1109,1109,1109,1109,,,,,,,,
277527517,0.2323329,1.82,1.826943,0.71,2.373017,184.07,1141,1141,1141,1141,,,,,,,,
277627388,1.485986,1.8,-2.668892,0.69,-2.515012,184.06,1157,1194,1150,1197,,,,,,,,
277727854,0.9371951,1.8,-0.1443185,0.71,1.688273,184.12,1150,1265,1207,1220,,,,,,,,
277827789,1.085467,1.82,0.929283,0.73,-7.001837,184.04,1269,1150,1158,1260,,,,,,,,
277928217,-7.159424,1.76,-2.036695,0.73,-0.88469,184.11,1240,1184,1150,1267,,,,,,,,
278027790,5.02284,1.8,3.195626,0.76,5.187869,184.11,1183,1230,1254,1150,,,,,,,,
278127821,0.41436,1.82,5.79646,0.75,-3.726904,184.1,1150,1256,1154,1251,,,,,,,,
278227672,-4.616938,1.74,0.1775136,0.74,3.529777,184.12,1254,1150,1150,1255,,,,,,,,
278327770,0.6404495,1.79,9.485633,0.79,-4.086413,184.09,1152,1173,1150,1174,,,,,,,,
278428017,-6.009291,1.76,-5.495453,0.73,2.850533,184.12,1255,1150,1201,1213,,,,,,,,
278527842,5.60339,1.82,8.388664,0.8,-2.930487,184.09,1220,1193,1150,1255,,,,,,,,
278627776,-5.654057,1.78,-7.542279,0.72,4.68971,184.15,1155,1250,1256,1150,,,,,,,,
278727767,10.86633,1.83,2.214802,0.82,-6.976429,184.07,1235,1176,1150,1255,,,,,,,,
278827833,-16.17957,1.71,-2.897657,0.74,4.815451,184.19,1247,1157,1150,1257,,,,,,,,
278928153,9.695941,1.86,-1.380226,0.73,-5.178894,184.07,1147,1147,1147,1147,,,,,,,,
279027806,-8.154884,1.76,0.03616489,0.77,-3.932261,184.1,1115,1115,1115,1115,,,,,,,,
279127766,5.340802,1.84,-2.025066,0.72,-4.377936,184.09,1100,1100,1100,1100,,,,,,,,
279227749,1.693591,1.82,4.017984,0.74,4.696133,184.11,1100,1100,1100,1100,,,,,,,,
279327814,-0.2033308,1.79,-2.779671,0.73,-2.596421,184.1,1100,1100,1100,1100,,,,,,,,
279428148,1.364016,1.82,-0.9287428,0.74,-1.993038,184.07,1100,1100,1100,1100,,,,,,,,
279527753,-0.3111408,1.84,3.138956,0.74,1.327579,184.11,1100,1100,1100,1100,,,,,,,,
279628496,0.2444315,1.82,-0.2553126,0.73,3.124134,184.11,1100,1100,1100,1100,,,,,,,,
279728214,0.8369117,1.85,-2.853895,0.72,3.637723,184.13,1100,1100,1100,1100,,,,,,,,
279828193,-1.343963,1.83,0.4724015,0.72,2.691055,184.12,1100,1100,1100,1100,,,,,,,,
279928576,-0.9362761,1.83,-0.1219431,0.71,2.231003,184.13,1100,1100,1100,1100,,,,,,,,
280028191,0.2341761,1.85,-1.107108,0.71,1.450875,184.09,1100,1100,1100,1100,,,,,,,,
280128208,-0.03865609,1.84,0.9534279,0.71,1.956292,184.1,1100,1100,1100,1100,,,,,,,,
280228199,0.4286582,1.85,-0.66182,0.69,0.5138927,184.1,1100,1100,1100,1100,,,,,,,,
280328200,-0.9032348,1.84,0.1769547,0.68,1.158585,184.1,1100,1100,1100,1100,,,,,,,,
280428332,0.3249896,1.84,1.017868,0.68,0.7284527,184.12,1100,1100,1100,1100,,,,,,,,
280528171,-3.00598,1.83,2.763719,0.68,-0.03391854,184.09,1100,1100,1100,1100,,,,,,,,
280628267,-0.7434779,1.84,1.168379,0.68,-1.13862,184.12,1100,1100,1100,1100,,,,,,,,
280728197,-2.493963,1.85,0.4077998,0.68,-1.669336,184.08,1100,1100,1100,1100,,,,,,,,
280828249,-2.593199,1.83,1.490887,0.67,-1.512266,184.12,1100,1100,1100,1100,,,,,,,,
280928346,-1.087518,1.85,1.008606,0.68,-2.566972,184.08,1100,1100,1100,1100,,,,,,,,
281028238,-0.3724914,1.85,1.503085,0.69,-1.199015,184.11,1100,1100,1100,1100,,,,,,,,
281128216,-1.994139,1.84,0.4450433,0.68,-1.874237,184.09,1100,1100,1100,1100,,,,,,,,
281228207,-1.672328,1.85,1.317964,0.68,-0.8224189,184.09,1100,1100,1100,1100,,,,,,,,
281327636,-0.3297547,1.85,0.9418074,0.67,-1.624316,184.1,1100,1100,1100,1100,,,,,,,,
281428337,-1.162691,1.83,0.3771093,0.67,-0.7841497,184.09,1100,1100,1100,1100,,,,,,,,
281528213,0.07742406,1.83,0.8783576,0.67,-1.254795,184.11,1100,1100,1100,1100,,,,,,,,
281628143,-1.971658,1.86,-0.9645845,0.66,-1.032243,184.1,1100,1100,1100,1100,,,,,,,,
281728423,-1.831519,1.85,-0.7394111,0.66,-0.8951198,184.11,1100,1100,1100,1100,,,,,,,,
281828214,-1.567155,1.84,-0.6853917,0.66,-1.544615,184.1,1100,1100,1100,1100,,,,,,,,
281928351,-0.6922724,1.84,-0.2200691,0.67,-1.105952,184.11,1100,1100,1100,1100,,,,,,,,
282028002,-0.4217519,1.87,0.2527096,0.66,-1.275836,184.12,1100,1100,1100,1100,,,,,,,,
282128164,-1.720371,1.86,0.3118103,0.66,-1.605628,184.12,1100,1100,1100,1100,,,,,,,,
282227993,-2.351232,1.85,-1.914187,0.65,-1.433408,184.13,1100,1100,1100,1100,,,,,,,,
282327972,-0.6475888,1.85,-2.616373,0.63,-0.6489482,184.12,1100,1100,1100,1100,,,,,,,,
282428630,-1.610767,1.85,1.487287,0.64,1.374386,184.15,1100,1100,1100,1100,,,,,,,,
282527752,-0.3643554,1.85,1.382205,0.64,1.417215,184.14,1100,1100,1100,1100,,,,,,,,
282627822,0.5024042,1.85,-0.4842882,0.63,2.195189,184.14,1100,1100,1100,1100,,,,,,,,
282727733,0.3479415,1.85,-0.4891519,0.63,1.854713,184.13,1100,1100,1100,1100,,,,,,,,
282827742,-1.156192,1.82,-0.2564522,0.61,0.817151,184.14,1100,1100,1100,1100,,,,,,,,
282928234,-1.446657,1.81,0.5263221,0.61,-1.511572,184.12,1100,1100,1100,1100,,,,,,,,
283027665,-0.3725429,1.82,1.418693,0.61,-2.474523,184.11,1100,1100,1100,1100,,,,,,,,
283127650,0.4344417,1.82,0.1589535,0.58,-2.67498,184.11,1100,1100,1100,1100,,,,,,,,
283227768,0.4986528,1.82,-0.7881218,0.57,-2.11581,184.12,1100,1100,1100,1100,,,,,,,,
283327784,1.500144,1.83,0.3248197,0.57,-2.357249,184.12,1100,1100,1100,1100,,,,,,,,
283428170,-1.223555,1.82,-1.386202,0.57,-2.01107,184.12,1100,1100,1100,1100,,,,,,,,
283527824,-0.3989109,1.82,-3.315748,0.57,-0.9045318,184.14,1100,1100,1100,1100,,,,,,,,
283627762,0.8303168,1.81,-2.159823,0.55,0.4527538,184.13,1100,1100,1100,1100,,,,,,,,
283728433,1.285962,1.83,-1.429208,0.55,1.949884,184.16,1100,1100,1100,1100,,,,,,,,
283828542,-0.1180633,1.82,1.167092,0.58,1.81565,184.15,1100,1100,1100,1100,,,,,,,,
283928793,-0.5444176,1.79,-0.5817177,0.56,3.308822,184.15,1100,1100,1100,1100,,,,,,,,
284028517,-0.5780275,1.81,-0.6433537,0.55,2.558974,184.15,1100,1100,1100,1100,,,,,,,,
284128383,-1.966321,1.81,-0.8838167,0.54,2.188947,184.15,1100,1100,1100,1100,,,,,,,,
284228555,-1.649463,1.8,-0.05155923,0.54,-0.3301929,184.14,1100,1100,1100,1100,,,,,,,,
284328422,-0.8668013,1.81,0.2174367,0.53,-2.063519,184.12,1100,1100,1100,1100,,,,,,,,
284428782,-2.469019,1.79,-0.3367628,0.52,-2.530869,184.13,1100,1100,1100,1100,,,,,,,,
284528501,-0.6839452,1.79,-1.284256,0.5,-2.4997,184.12,1100,1100,1100,1100,,,,,,,,
284628538,-0.3632636,1.8,-0.1893892,0.5,-2.387903,184.14,1121,1121,1121,1121,,,,,,,,
284728513,-0.3254863,1.79,0.7160657,0.52,-3.322349,184.13,1261,1150,1190,1232,,,,,,,,
284828382,-1.784494,1.78,3.46634,0.5,5.91357,184.21,1150,1268,1219,1211,,,,,,,,
284929587,8.899765,1.79,0.7786968,0.51,2.362253,184.17,1256,1165,1150,1270,,,,,,,,
285029247,12.25356,1.81,3.269735,0.55,-5.86377,184.12,1150,1265,1201,1218,,,,,,,,
285129160,-15.86131,1.67,-4.38231,0.5,0.7259964,184.17,1233,1187,1150,1263,,,,,,,,
285229200,11.82364,1.82,0.8920923,0.49,-1.276258,184.13,1206,1218,1261,1150,,,,,,,,
285329284,-14.80811,1.64,-9.608394,0.44,0.4136379,184.16,1182,1238,1150,1263,,,,,,,,
285429350,14.37187,1.79,3.686685,0.51,-2.128231,184.13,1233,1183,1150,1258,,,,,,,,
285529275,-9.808942,1.72,-5.359932,0.45,5.451982,184.19,1255,1150,1197,1218,,,,,,,,
285629162,4.204876,1.75,6.814006,0.55,-8.763829,184.11,1174,1238,1255,1150,,,,,,,,
285729149,-12.83992,1.72,-4.711501,0.45,7.841569,184.18,1163,1247,1150,1255,,,,,,,,
285829183,7.703603,1.77,5.297775,0.53,-7.550854,184.12,1240,1170,1150,1256,,,,,,,,
285929538,-4.180427,1.74,-2.597007,0.45,9.125429,184.16,1232,1150,1197,1183,,,,,,,,
286029313,4.153386,1.76,9.9174,0.54,-7.457891,184.17,1243,1165,1150,1257,,,,,,,,
286129345,-5.945251,1.75,-3.273305,0.45,5.767019,184.14,1260,1175,1150,1276,,,,,,,,
286229307,-1.681498,1.72,6.062757,0.52,-4.192866,184.13,1198,1345,1364,1150,,,,,,,,
286329265,9.023573,1.78,-6.415831,0.49,5.281775,184.3,1227,1171,1150,1273,,,,,,,,
286429657,13.35483,1.83,-4.135227,0.49,-5.87041,183.99,1121,1121,1121,1121,,,,,,,,
286529295,-14.88975,1.72,-4.937961,0.46,8.805265,184.27,1100,1100,1100,1100,,,,,,,,
286629289,4.995018,1.81,0.3061173,0.48,4.92629,184.11,1100,1100,1100,1100,,,,,,,,
286729215,1.495917,1.79,0.1962084,0.49,4.576507,184.13,1100,1100,1100,1100,,,,,,,,
286829562,6.014919,1.79,-3.067889,0.42,-4.080231,184.14,1100,1100,1100,1100,,,,,,,,
286929902,0.5068394,1.74,0.8802986,0.39,-0.6042604,184.06,1100,1100,1100,1100,,,,,,,,
287030644,0.3963296,1.71,1.545548,0.38,0.7010483,184.17,1100,1100,1100,1100,,,,,,,,
287130600,2.062743,1.72,-0.9314303,0.35,4.3579,184.08,1100,1100,1100,1100,,,,,,,,
287230778,-1.090539,1.69,-0.7296632,0.34,2.412463,184.18,1100,1100,1100,1100,,,,,,,,
287330851,-2.063358,1.7,-1.356988,0.34,1.651782,184.07,1100,1100,1100,1100,,,,,,,,
287431174,-0.234552,1.71,-1.471258,0.35,2.529209,184.15,1100,1100,1100,1100,,,,,,,,
287530835,-0.9286864,1.71,-0.4333945,0.35,1.127639,184.09,1100,1100,1100,1100,,,,,,,,
287630770,-0.9500135,1.71,0.3285575,0.36,3.564453,184.13,1100,1100,1100,1100,,,,,,,,
287730743,-0.3892201,1.71,0.9313015,0.37,0.8195342,184.1,1100,1100,1100,1100,,,,,,,,
287830634,1.036196,1.72,2.058503,0.38,1.558232,184.09,1100,1100,1100,1100,,,,,,,,
287931169,-1.038783,1.7,0.579421,0.37,-1.480326,184.11,1100,1100,1100,1100,,,,,,,,
288030990,0.02906392,1.7,1.817117,0.36,-1.557245,184.08,1100,1100,1100,1100,,,,,,,,
288130835,-0.5520667,1.72,0.306621,0.38,-3.267425,184.11,1100,1100,1100,1100,,,,,,,,
288230870,-0.1499764,1.69,-1.456165,0.35,-1.556684,184.08,1100,1100,1100,1100,,,,,,,,
288330770,1.098793,1.71,0.05828856,0.37,-0.03708738,184.14,1100,1100,1100,1100,,,,,,,,
288431181,-0.3107676,1.7,-0.3141041,0.38,1.995353,184.1,1100,1100,1100,1100,,,,,,,,
288530757,1.344148,1.7,0.6661105,0.39,2.829469,184.14,1100,1100,1100,1100,,,,,,,,
288630725,-0.7748367,1.7,-0.6512161,0.38,1.772293,184.09,1100,1100,1100,1100,,,,,,,,
288730767,0.274755,1.7,-0.6898907,0.38,0.5324481,184.1,1100,1100,1100,1100,,,,,,,,
288830745,0.3595773,1.72,-0.1734143,0.38,-0.682058,184.07,1100,1100,1100,1100,,,,,,,,
288931222,-0.6658483,1.7,0.1273936,0.36,-0.14593,184.1,1100,1100,1100,1100,,,,,,,,
289031210,1.127133,1.71,-0.005001459,0.36,-1.636975,184.09,1100,1100,1100,1100,,,,,,,,
289131384,-1.949749,1.69,-0.1776788,0.35,-1.432664,184.1,1100,1100,1100,1100,,,,,,,,
289231264,-0.4132995,1.69,-1.519857,0.36,-2.418874,184.11,1100,1100,1100,1100,,,,,,,,
289330986,-2.533529,1.69,-1.511274,0.36,-0.6027505,184.1,1100,1100,1100,1100,,,,,,,,
289431336,-0.3778206,1.69,-3.3823,0.37,-0.3090376,184.13,1100,1100,1100,1100,,,,,,,,
289531052,-0.6537591,1.69,-2.863868,0.35,0.932762,184.1,1100,1100,1100,1100,,,,,,,,
289631415,0.9667624,1.71,0.63838,0.37,1.22277,184.13,1100,1100,1100,1100,,,,,,,,
289731495,-2.047209,1.7,1.636974,0.38,1.122648,184.11,1100,1100,1100,1100,,,,,,,,
289831795,0.03429539,1.7,1.652452,0.39,1.14794,184.13,1100,1100,1100,1100,,,,,,,,
289932130,0.314202,1.73,1.560626,0.38,1.307897,184.13,1107,1107,1107,1107,,,,,,,,
290031873,-0.4339861,1.71,-0.2551167,0.37,2.09522,184.12,1139,1139,1139,1139,,,,,,,,
290131854,1.846036,1.72,-0.9936006,0.37,-0.520689,184.14,1318,1150,1217,1275,,,,,,,,
290231879,5.956706,1.68,0.3925082,0.42,-5.111571,184.12,1244,1150,1189,1220,,,,,,,,
290331798,1.951216,1.66,6.196893,0.38,1.716453,184.18,1356,1222,1374,1206,,,,,,,,
290432325,1.51057,1.68,31.69626,0.63,2.184963,184.27,1708,1150,1669,1275,,,,,,,,
290532231,-6.059785,1.61,-0.2817238,0.89,-3.903144,184.15,1674,1356,1665,1373,,,,,,,,
290632527,19.29021,1.36,-12.26747,1.26,11.20056,184.44,1243,1856,1402,1792,,,,,,,,
290732245,31.16259,0.96,-31.70145,1.31,14.03121,185.2,1675,1447,1150,1859,,,,,,,,
290832244,13.1821,1.34,-57.05484,0.4,9.567842,186.39,1220,1704,1587,1599,,,,,,,,
290932612,-12.01196,2.09,-28.41225,-0.98,10.42569,187.57,1751,1150,1755,1384,,,,,,,,
291032259,-19.01974,2.33,-1.283576,-2.28,5.662166,188.73,1330,1638,1513,1757,,,,,,,,
291132252,-27.35115,0.71,-10.23183,-2.72,3.171925,189.42,1625,1378,1587,1729,,,,,,,,
291232360,21.56359,-0.31,49.08846,-1.72,3.462614,189.79,1150,1857,1594,1760,,,,,,,,
291332195,-19.08161,-0.35,-60.28724,-0.95,1.376758,189.75,1281,1640,1718,1541,,,,,,,,
291432933,37.25792,1.4,31.48798,-0.64,1.621574,189.73,1150,1702,1492,1750,,,,,,,,
291532543,-5.084791,1.88,21.53899,-1.32,-0.4216743,189.67,1150,1789,1481,1739,,,,,,,,
291632577,-15.58713,1.77,-69.84476,-2.95,-1.117568,189.66,1150,1789,1379,1846,,,,,,,,
291732508,10.71555,1.42,-40.60115,-3.28,3.603049,189.8,1790,1150,1235,1904,,,,,,,,
291832570,9.279762,1.39,-30.96049,-3.28,4.813299,190.03,1334,1571,1761,1441,,,,,,,,
291932769,14.47334,1.33,2.923635,-2.58,4.201835,190.23,1150,1752,1368,1757,,,,,,,,
292032594,-14.77917,1.37,-41.02499,-2.01,4.239975,190.26,1150,1817,1459,1798,,,,,,,,
292132549,9.387966,1.9,13.23917,-2.67,-2.031925,190.22,1527,1318,1723,1427,,,,,,,,
292232593,33.29492,2.18,24.69927,-3.46,-6.706831,189.56,1559,1398,1150,1806,,,,,,,,
292332974,11.61722,2.45,38.14097,-2.92,-3.391181,188.85,1384,1501,1642,1474,,,,,,,,
292433224,-2.472337,2.01,-8.492512,-2.79,-2.159169,188.09,1150,1763,1251,1831,,,,,,,,
292533744,7.838899,1.91,9.955812,-2.69,-6.648123,187.47,1396,1567,1150,1758,,,,,,,,
292634149,4.34992,2.19,27.46592,-2.51,-0.6517345,183.17,1425,1498,1586,1477,,,,,,,,
292735640,-8.751065,2.24,8.446924,-2.3,2.364212,182.85,1364,1601,1150,1732,,,,,,,,
292836992,-8.641093,2.16,-57.79472,-2.92,8.941051,182.94,1461,1520,1150,1732,,,,,,,,
292938311,-11.30847,2.45,-67.25916,-3.51,4.694117,183.27,1677,1150,1664,1324,,,,,,,,
293039932,5.895823,2.49,-35.72417,-4.15,4.049411,183.48,1641,1150,1699,1320,,,,,,,,
293141196,-10.42313,2.71,-4.578965,-3.03,4.078041,183.58,1422,1480,1150,1763,,,,,,,,
293247767,-3.055008,3.6,44.99075,-0.77,-2.523793,183.47,1560,1322,1504,1585,,,,,,,,
293348747,-10.68412,3.05,-32.13584,-1.29,-3.975045,183.36,1530,1388,1476,1619,,,,,,,,
293450283,0.9007282,2.86,-7.15591,-2.41,-7.056667,183.07,1378,1555,1150,1756,,,,,,,,
293552282,-13.33321,2.15,19.76833,-2.64,-3.228891,182.74,1247,1740,1150,1805,,,,,,,,
293653542,2.341233,1.22,36.08932,-3.55,-1.778641,182.64,1619,1207,1730,1150,,,,,,,,
293754295,-17.9824,1.14,-52.73296,-3.87,3.63243,182.6,1541,1296,1150,1714,,,,,,,,
293855834,1.876943,1.62,-13.70704,-2.76,-3.112959,182.64,1621,1152,1643,1356,,,,,,,,
293956833,-21.23925,1.1,-0.04172381,-2.38,-1.672719,182.71,1569,1355,1704,1150,,,,,,,,
294058316,18.92136,0.92,48.58666,-2.2,-6.394966,182.55,1500,1430,1747,1150,,,,,,,,
294159913,-5.789793,1.1,39.39984,-0.9,-0.4375156,182.44,1303,1561,1337,1654,,,,,,,,
294261228,5.208415,1.11,1.24094,-1.07,-1.392339,182.62,1150,1638,1161,1744,,,,,,,,
294362288,-8.198258,0.66,-22.62351,-2.26,3.95654,182.85,1367,1520,1392,1650,,,,,,,,
294468928,-3.572056,0.38,4.389016,-2.95,1.219418,182.92,1637,1336,1761,1150,,,,,,,,
294570249,2.035163,0.62,-20.3483,-3.38,-4.788281,182.62,1691,1150,1620,1459,,,,,,,,
294671513,-12.54697,0.7,15.13513,-1.46,-2.215535,182.45,1233,1647,1150,1724,,,,,,,,
294773244,28.76141,1.06,1.020758,-0.09,2.317647,182.26,1358,1726,1150,1862,,,,,,,,
294874510,-28.11071,0.13,-19.17191,-2.37,5.631063,182.39,1479,1496,1765,1150,,,,,,,,
294975275,-9.120759,-0.96,-11.17976,-4.88,0.1294416,182.42,1494,1448,1706,1150,,,,,,,,
295077239,-17.11568,-2.32,-25.69743,-5.45,1.830332,182.27,1374,1495,1715,1150,,,,,,,,
295178978,25.7284,-2.52,4.965899,-5.48,-0.3793144,182.15,1360,1590,1150,1705,,,,,,,,
295280771,29.26844,-0.27,-17.51393,-4.34,-0.5602245,182.08,1564,1237,1329,1620,,,,,,,,
295382201,2.449684,1.79,2.862062,-3.1,-0.2732498,182.19,1443,1502,1150,1755,,,,,,,,
295484172,19.10066,3.14,20.95836,-2.64,-2.600912,182.24,1585,1218,1641,1324,,,,,,,,
295585658,17.69344,4.37,50.57617,-1.69,-4.987511,182.24,1434,1449,1582,1417,,,,,,,,
295686566,4.031546,4.14,-46.72496,-1.24,-1.0468,182.02,1684,1150,1654,1305,,,,,,,,
295787635,20.53505,3.92,63.70217,-0.43,-0.1906555,181.81,1505,1494,1150,1749,,,,,,,,
295889202,26.22274,4.44,2.664027,-1.25,-4.475109,181.69,1594,1286,1709,1150,,,,,,,,
295991180,35.46179,5.64,-3.374794,-2.54,-0.4726005,181.63,1590,1304,1693,1150,,,,,,,,
296092987,-7.180815,6.86,-16.80743,-3.29,7.590496,181.68,1597,1294,1678,1150,,,,,,,,
296193981,-14.50417,7.28,-57.47221,-4.07,8.997346,181.72,1645,1150,1687,1238,,,,,,,,
296295348,10.66139,7.64,25.7901,-4.03,10.43159,182.26,1591,1373,1671,1150,,,,,,,,
296396942,16.18386,7.73,-15.73271,-4.1,24.82962,184.03,1613,1527,1307,1447,,,,,,,,
296499416,14.53071,8.21,25.79937,-2.54,48.51097,187.98,1408,1775,1162,1448,,,,,,,,
296601153,2.005361,8.37,47.40166,-1.03,56.7518,193.44,1490,1651,1696,1150,,,,,,,,
296703002,-2.210682,8.71,-27.9843,-1.3,70.20613,199.93,1555,1620,1435,1283,,,,,,,,
296804384,-2.871526,8.23,-22.36122,-4.02,78.94991,207.65,1571,1534,1583,1184,,,,,,,,
296905977,-9.054445,6.2,-27.2902,-6.51,85.3476,216.39,1150,1796,1659,1390,,,,,,,,
297008204,-13.67012,4.04,30.072,-7,80.15163,225.63,1690,1150,1643,1399,,,,,,,,
297109861,26.9806,2.72,84.39582,-7.97,69.45256,234.61,1150,1726,1554,1652,,,,,,,,
297210754,6.303003,2.13,70.53976,-7.5,71.61629,242.72,1239,1571,1150,1790,,,,,,,,
297312416,11.95259,1.59,13.2911,-6.75,55.00263,249.77,1150,1577,1326,1731,,,,,,,,
297413768,-1.153738,1.07,2.49161,-6.38,56.84061,256.05,1150,1592,1726,1344,,,,,,,,
297515408,-12.77731,0.37,-7.929106,-6.8,51.68282,261.78,1360,1464,1254,1781,,,,,,,,
297616980,31.57496,0.69,76.52509,-6.32,47.63267,266.94,1367,1662,1150,1832,,,,,,,,
297718320,14.599,0.67,11.29344,-6.25,39.76372,271.49,1449,1525,1150,1790,,,,,,,,
297819400,3.730826,-0.17,19.26906,-5.33,32.23716,274.8,1588,1150,1753,1347,,,,,,,,
297921786,-33.08201,-0.92,-42.18755,-4.6,29.89291,277.73,1201,1632,1150,1768,,,,,,,,
298023559,18.18758,-0.01,24.29745,-3.08,15.15964,279.57,1629,1150,1623,1498,,,,,,,,
298124718,-24.3842,0.25,-29.56093,-3.33,0.6972343,280.82,1653,1150,1709,1306,,,,,,,,
298228897,-28.64097,-0.45,14.13881,-1.81,-11.52164,281.38,1441,1265,1842,1150,,,,,,,,
298329772,-2.45027,-1.1,9.495357,-1.31,-23.97882,280.47,1150,1354,1766,1535,,,,,,,,
298432623,8.820465,-0.75,15.95032,-1.63,-32.05422,278.33,1392,1239,1702,1562,,,,,,,,
298534177,1.068527,-0.2,-3.470269,-1.57,-39.86307,275.41,1355,1442,1150,1876,,,,,,,,
298635409,-0.6990778,-0.46,-0.8017645,-0.98,-33.38911,271.97,1370,1437,1638,1520,,,,,,,,
298736719,-18.65665,-1.27,9.859172,-0.34,-40.2958,268.58,1224,1569,1330,1744,,,,,,,,
298838213,-21.88412,-1.72,-13.24698,0.54,-23.70283,265.59,1300,1603,1150,1755,,,,,,,,
298939970,14.89165,-1.71,86.61581,2.31,-26.76948,262.52,1679,1150,1705,1337,,,,,,,,
299041420,-1.240734,-2.75,-45.47007,1.44,-29.48183,259.4,1525,1277,1730,1291,,,,,,,,
299143175,-14.83935,-3.76,6.132427,1.06,-37.362,255.96,1306,1562,1769,1150,,,,,,,,
299244877,11.66448,-4.65,39.66105,1.32,-37.44728,252.22,1501,1390,1731,1150,,,,,,,,
299346741,12.22561,-4.53,13.02534,3.21,-32.16211,248.19,1256,1614,1150,1779,,,,,,,,
299448350,-25.47633,-5.67,21.32604,2.26,-37.41052,244.53,1633,1150,1494,1629,,,,,,,,
299549783,11.83353,-5.7,-27.03681,0.59,-36.36978,240.81,1328,1352,1618,1593,,,,,,,,
299653974,-7.689976,-5.83,27.7384,-0.14,-56.29282,236.21,1546,1150,1517,1694,,,,,,,,
299755350,-2.871325,-5.89,-5.172719,-1.66,-46.38791,231.41,1275,1345,1517,1729,,,,,,,,
299857523,5.93477,-6.44,-0.03430772,-2.99,-51.65264,225.99,1167,1436,1680,1598,,,,,,,,
299959510,20.38611,-5.59,-2.083225,-4.32,-56.89734,219.64,1316,1316,1676,1562,,,,,,,,
300060942,-2.899458,-4.7,-13.861,-7.59,-77.2009,212.23,1293,1459,1789,1381,,,,,,,,
300162261,-17.91256,-3.84,-17.24936,-10.17,-90.86746,203.96,1150,1664,1160,1871,,,,,,,,
300263918,-8.166798,-2.3,-38.6259,-10.76,-73.11139,196.04,1428,1541,1411,1635,,,,,,,,
300365431,1.535344,-0.61,-15.44037,-10.1,-55.4273,188.78,1289,1825,1150,1834,,,,,,,,
300467268,9.474186,-0.42,31.0352,-10.35,-40.26666,183.34,1571,1548,1150,1646,,,,,,,,
300568356,1.812812,0.01,-20.87127,-12.29,-24.5843,179.6,1501,1654,1499,1322,,,,,,,,
300669800,2.886239,1.57,64.51446,-12.79,-16.4133,177.54,1636,1477,1150,1674,,,,,,,,
300770995,-13.55089,2.81,11.26047,-11.06,-2.55632,176.76,1421,1598,1150,1693,,,,,,,,
300872731,29.16291,5,30.38542,-7.2,8.398858,177.33,1322,1676,1150,1721,,,,,,,,
300974623,-9.628181,4.82,-42.73931,-5.4,20.92746,178.75,1408,1621,1150,1741,,,,,,,,
301076747,-11.6039,3.91,-58.01156,-7.64,18.9166,180.3,1564,1432,1732,1334,,,,,,,,
301178422,-11.79093,3.31,13.87818,-10.3,11.90266,181.68,1529,1380,1729,1348,,,,,,,,
301280789,-0.9188277,2.88,38.75483,-11.66,18.16027,183.23,1671,1150,1682,1352,,,,,,,,
301382168,-22.50901,2.18,-50.63019,-11.53,20.37207,184.98,1342,1447,1592,1587,,,,,,,,
301484213,26.18185,2.55,30.92795,-9.28,12.76128,186.58,1205,1615,1150,1770,,,,,,,,
301585733,-28.43099,1.99,18.12086,-8.89,10.01612,187.7,1310,1492,1150,1881,,,,,,,,
301687335,2.171746,0.7,-19.35333,-9.51,8.160601,188.4,1150,1643,1583,1550,,,,,,,,
301788751,0.4988245,0.45,4.975345,-8.82,10.96959,188.75,1335,1319,1509,1670,,,,,,,,
301889974,9.771695,0.92,14.59061,-9.16,-8.593295,188.17,1219,1473,1335,1764,,,,,,,,
301991370,10.01222,1.55,28.58075,-8.71,-9.373009,187.06,1339,1575,1150,1853,,,,,,,,
302093913,-14.77055,0.56,43.61007,-8.15,-4.944903,185.62,1150,1565,1405,1639,,,,,,,,
302195242,3.388537,0.29,6.587177,-6.75,-24.77822,184.12,1395,1492,1676,1150,,,,,,,,
302297345,11.44327,1.32,66.80681,-4.43,-8.076727,183.08,1462,1453,1150,1662,,,,,,,,
302398540,10.56103,2.31,76.92986,-1.07,5.0199,182.78,1150,1659,1251,1566,,,,,,,,
302501303,-3.753304,2.34,2.60328,2.69,5.953596,183.72,1150,1669,1270,1597,,,,,,,,
302602651,30.17488,3.76,83.18122,6.47,12.66069,185.56,1150,1720,1151,1707,,,,,,,,
302704726,39.02542,7.09,-30.78795,6.47,22.2164,188,1624,1150,1531,1359,,,,,,,,
302805928,-14.31356,6.69,-57.60659,3.13,34.72329,190.82,1410,1500,1693,1150,,,,,,,,
302907805,2.651564,3.97,-50.29925,-1.71,36.41891,193.61,1150,1738,1352,1681,,,,,,,,
303009505,66.74992,4.01,42.14684,-3.4,30.08535,196.51,1252,1668,1150,1725,,,,,,,,
303111766,48.71102,7.83,21.4593,-2.76,31.16522,199.5,1458,1541,1150,1712,,,,,,,,
303213319,-18.63599,9.41,29.60585,-0.41,32.74654,202.97,1399,1562,1150,1655,,,,,,,,
303314623,-16.81347,8.19,84.40751,2.14,31.64763,206.83,1538,1563,1150,1639,,,,,,,,
303416002,-12.85296,6.33,-8.753926,0.88,43.77216,210.88,1527,1617,1150,1760,,,,,,,,
303518106,12.61562,5.9,-36.39618,-3.25,55.26888,215.52,1523,1541,1150,1647,,,,,,,,
303622223,-5.583411,4.43,-15.56443,-6.06,60.15848,221.35,1369,1722,1150,1637,,,,,,,,
303723585,11.69667,4.16,-54.69244,-8.49,59.72607,227.47,1595,1556,1683,1150,,,,,,,,
303825211,53.38208,6.69,1.337371,-7.94,65.4094,234.07,1385,1644,1150,1689,,,,,,,,
303927535,43.92115,9.05,24.87215,-5.49,70.32835,241.42,1486,1635,1150,1757,,,,,,,,
304028571,-7.459713,7.33,10.98865,-5.66,75.51999,249.14,1525,1543,1150,1713,,,,,,,,
304129950,-6.792271,5.31,26.35655,-7.7,70.21954,256.77,1150,1825,1561,1573,,,,,,,,
304231339,-3.408193,4.24,-24.08939,-11.47,72.76083,264.1,1150,1786,1483,1676,,,,,,,,
304333502,-37.86036,1.85,-8.801765,-13.05,51.28059,270.72,1317,1541,1457,1714,,,,,,,,
304435142,-25.52169,-2.54,8.016415,-11.44,28.83408,275.42,1471,1460,1596,1720,,,,,,,,
304537050,18.58117,-3.83,28.67341,-8.75,31.4221,279.32,1204,1653,1407,1890,,,,,,,,
304638528,41.39938,-2.89,35.81285,-6.83,26.61757,282.42,1221,1734,1150,1863,,,,,,,,
304740753,-15.2641,-2.71,-68.55757,-8.36,20.25464,284.82,1379,1716,1150,1949,,,,,,,,
304842569,-8.45966,-3.14,-7.780037,-8.54,9.011423,286.37,1338,1585,1150,1767,,,,,,,,
304943924,-27.15251,-3.24,21.65527,-5.55,-5.059395,286.95,1410,1552,1150,1774,,,,,,,,
305048274,-2.684129,-3.38,3.698437,-4.73,2.323344,286.88,1516,1275,1760,1477,,,,,,,,
305149571,-1.172464,-4.43,55.54432,-5.76,-1.734851,286.63,1197,1698,1150,1874,,,,,,,,
305251142,18.00375,-3.9,9.428941,-5.52,-11.35476,286.3,1386,1480,1150,1818,,,,,,,,
305352643,-16.07763,-4.26,-24.31031,-6.04,-13.15609,285.75,1526,1387,1529,1739,,,,,,,,
305454280,-4.941542,-3.61,-2.063694,-3.95,-1.851418,285.43,1412,1529,1150,1753,,,,,,,,
305555853,-8.645022,-2.45,38.2327,-1.47,-9.98001,284.85,1164,1594,1495,1721,,,,,,,,
305657852,5.015369,-3.55,9.252892,-3.04,-10.55488,284.22,1383,1550,1263,1874,,,,,,,,
305759279,-1.203769,-3.95,27.42089,-4.52,-13.46534,283.24,1167,1640,1322,1789,,,,,,,,
305860747,23.08241,-3.72,33.72594,-4.6,-15.09174,282.04,1569,1311,1762,1273,,,,,,,,
305962290,15.80606,-3.6,13.03393,-2.68,-19.89487,280.78,1641,1236,1598,1506,,,,,,,,
306064519,17.94176,-2.84,-6.785666,-4.19,-7.562655,280.16,1509,1477,1212,1781,,,,,,,,
306165937,22.36055,-2.02,62.70797,-4.05,-1.021352,279.47,1253,1697,1150,1781,,,,,,,,
306267372,3.282962,-1.97,-21.12734,-3.1,-6.515917,278.79,1666,1150,1716,1212,,,,,,,,
306368798,3.28548,-1.25,65.85616,-0.22,-2.697451,278.23,1448,1525,1150,1726,,,,,,,,
306469926,-15.91888,-1.45,-0.2174869,-0.14,0.1035984,277.98,1465,1598,1150,1792,,,,,,,,
306571909,11.14458,-2.39,-3.970974,-1.21,-2.997378,277.64,1239,1767,1150,1844,,,,,,,,
306673509,11.97498,-2.86,46.40178,-1.26,-8.63682,276.8,1150,1647,1268,1718,,,,,,,,
306774635,-18.99518,-4.04,2.870398,0.71,-10.90995,275.57,1555,1320,1732,1150,,,,,,,,
306875952,26.67252,-3.38,65.60362,4.28,-11.82297,273.98,1415,1413,1352,1707,,,,,,,,
306977972,-12.71963,-3.96,-45.7916,3.52,-18.45997,272.48,1150,1680,1179,1755,,,,,,,,
307079169,-15.23857,-4.3,13.07589,3.97,-27.62024,270.16,1214,1499,1646,1540,,,,,,,,
307180632,-19.43402,-5.99,-56.21789,1.96,-24.96805,267.06,1150,1724,1235,1807,,,,,,,,
307282422,-11.90841,-7.84,-18.41706,0.18,-42.20498,263.16,1379,1287,1426,1744,,,,,,,,
307384248,-2.751077,-8.99,66.67287,1.54,-42.95438,258.12,1370,1357,1209,1901,,,,,,,,
307485911,-6.003124,-10.13,1.354307,2.33,-57.06541,252.69,1682,1150,1736,1468,,,,,,,,
307587171,4.643785,-10.46,-30.06041,1.63,-49.29419,247,1150,1583,1407,1887,,,,,,,,
307688727,46.30281,-8.92,50.34657,0.01,-57.93317,240.92,1640,1250,1834,1150,,,,,,,,
307789917,-3.94401,-7.9,-62.43428,-2.3,-69.92138,234.71,1150,1688,1315,1789,,,,,,,,
307891897,8.64792,-7.13,25.84795,-3.23,-78.41692,228.02,1150,1706,1231,1871,,,,,,,,
307993227,45.82616,-5.71,29.90757,-4.08,-67.92961,221.09,1365,1692,1150,1870,,,,,,,,
308095613,-27.37439,-4.34,-64.53478,-3.81,-69.31599,213.8,1617,1150,1573,1634,,,,,,,,
308198842,20.77519,-3.03,22.54839,-3.56,-71.1771,206.64,1657,1150,1568,1567,,,,,,,,
308300251,12.15132,-1.52,83.43894,-1.99,-65.82895,199.75,1528,1329,1454,1622,,,,,,,,
308401614,-11.21958,-1.44,-79.45243,-2.82,-55.00784,193.42,1481,1531,1639,1316,,,,,,,,
308503959,-13.72949,-1.26,16.23218,-2.53,-47.14521,188.11,1584,1524,1611,1218,,,,,,,,
308604936,18.03917,-0.68,7.45094,-3.66,-33.01105,184.35,1251,1857,1150,1739,,,,,,,,
308706615,12.01106,0.55,25.95932,-3.67,-20.15182,181.71,1497,1654,1535,1206,,,,,,,,
308807911,-30.11199,1.36,-58.9054,-4.25,-10.37192,180.54,1509,1647,1329,1490,,,,,,,,
308910520,30.70547,2.21,24.50013,-3.38,-0.5645027,180.09,1280,1770,1387,1465,,,,,,,,
309011923,13.44095,3.14,-8.36594,-1.07,7.018978,180.29,1545,1560,1426,1415,,,,,,,,
309114537,1.7323,3.31,4.375631,-1.16,12.08857,181.46,1150,1841,1463,1550,,,,,,,,
309216392,-30.72025,2.21,-58.50329,-2.28,21.72632,183.47,1637,1307,1700,1150,,,,,,,,
309317716,-23.20562,0.66,6.629519,-3.89,19.79235,185.46,1406,1595,1150,1750,,,,,,,,
309419283,-9.068875,-0.09,-18.28681,-5.49,14.95592,187.34,1346,1509,1150,1787,,,,,,,,
309521495,-13.32699,-0.5,31.06567,-5.8,11.19491,188.97,1249,1520,1404,1731,,,,,,,,
309627846,-2.865504,-0.87,11.33571,-6.12,3.543615,190.33,1439,1350,1185,1893,,,,,,,,
309729192,18.65448,-0.91,65.3876,-4.44,7.464573,191.34,1634,1222,1824,1150,,,,,,,,
309830417,13.26205,-0.94,43.01585,-0.86,9.358827,191.84,1467,1443,1150,1807,,,,,,,,
309932918,-1.908845,-2.35,-12.60432,-0.32,-3.51516,191.57,1522,1150,1817,1522,,,,,,,,
310034822,4.930589,-3.94,-18.20016,-1.96,-18.02621,190.17,1150,1618,1471,1748,,,,,,,,
310135620,-2.197294,-4.55,10.66975,-2.32,-24.60471,187.31,1177,1496,1778,1557,,,,,,,,
310236969,-7.09599,-4.85,-12.93532,-1.58,-53.98232,182.87,1515,1251,1652,1686,,,,,,,,
310338500,1.068673,-4.77,-6.915768,-1.09,-40.05246,178.27,1452,1344,1737,1580,,,,,,,,
310440369,1.027113,-4.93,18.01531,-0.24,-49.80722,173.09,1306,1425,1736,1556,,,,,,,,
310541587,0.3522871,-5.86,32.89553,-0.51,-66.55026,166.97,1172,1521,1761,1549,,,,,,,,
310642906,-18.1938,-6.53,-11.18341,-0.64,-69.29124,160.4,1347,1394,1720,1559,,,,,,,,
310744223,-22.49205,-7.36,-26.52073,-1.54,-67.95993,153.26,1556,1163,1773,1478,,,,,,,,
310846617,-24.53909,-8.54,-20.7868,-2.75,-80.68128,145.62,1576,1390,1868,1150,,,,,,,,
310947512,-14.40142,-8.49,17.75001,-3.64,-85.95621,137.81,1470,1465,1406,1772,,,,,,,,
311049323,6.464519,-7.57,-19.18104,-4.68,-74.18774,130.11,1373,1571,1215,1819,,,,,,,,
311150935,24.03937,-7.08,55.13768,-5.24,-71.55988,122.8,1150,1756,1441,1668,,,,,,,,
311252554,26.17343,-6.31,-5.459747,-5.85,-69.91689,115.87,1429,1542,1754,1286,,,,,,,,
311353643,-22.92043,-4.55,-67.40108,-6.64,-62.24169,109.4,1150,1733,1305,1716,,,,,,,,
311455558,2.970299,-2.51,0.8069811,-6.66,-54.33529,103.35,1775,1179,1731,1150,,,,,,,,
311557174,-8.812015,-0.69,-13.37137,-6.9,-41.8908,98.62,1628,1507,1698,1150,,,,,,,,
311658786,22.28516,0.27,1.719432,-7.49,-29.52321,94.96,1654,1531,1150,1646,,,,,,,,
311759944,-1.402951,1.26,9.022817,-8.07,-18.26436,92.62,1513,1660,1150,1739,,,,,,,,
311861852,-21.48658,2.46,4.52175,-8.03,-9.710279,91.23,1556,1533,1150,1697,,,,,,,,
311963397,-16.43737,3.37,-5.596916,-6.45,-2.861151,90.69,1524,1539,1150,1689,,,,,,,,
312065532,28.31903,4.53,8.412269,-5.01,3.687609,90.67,1437,1623,1150,1702,,,,,,,,
312167241,-1.043756,5.17,27.72905,-4.04,7.61763,91.11,1240,1767,1150,1683,,,,,,,,
312268502,30.35538,4.75,27.05372,-4.82,13.58189,91.95,1586,1524,1495,1458,,,,,,,,
312369808,-5.310925,4.35,15.24132,-5.7,12.2361,92.8,1592,1463,1729,1150,,,,,,,,
312471432,-7.212106,4.46,-7.443886,-5.97,7.046327,93.74,1394,1687,1150,1789,,,,,,,,
312573247,12.73542,4.81,-1.686268,-4.4,6.863404,94.6,1467,1542,1730,1150,,,,,,,,
312674387,-13.28075,5.35,-47.076,-3.11,13.50178,95.56,1412,1607,1581,1498,,,,,,,,
312776252,-12.183,5.5,-13.9942,-2.38,10.00757,96.37,1665,1250,1737,1150,,,,,,,,
312878199,16.74403,5.02,32.21072,-3.51,7.767859,97.02,1673,1150,1516,1547,,,,,,,,
312978788,-4.067425,4.67,1.998107,-4.99,13.45035,98.24,1597,1376,1750,1150,,,,,,,,
313081372,-23.65235,3.98,37.98876,-4.31,4.174368,99.55,1150,1610,1768,1158,,,,,,,,
313182910,-13.46199,3.15,-17.21027,-3.51,10.02227,100.63,1150,1640,1432,1695,,,,,,,,
313284789,24.51592,3.5,29.95724,-1.84,7.274354,101.14,1503,1253,1610,1521,,,,,,,,
313386085,10.99239,4.91,-59.81019,-2.55,-9.143113,101.06,1167,1627,1461,1698,,,,,,,,
313488338,-4.629908,5.6,18.62179,-3.72,-4.491549,100.87,1427,1451,1561,1544,,,,,,,,
313589871,2.467168,4.8,-0.8909244,-1.25,8.01912,100.99,1472,1378,1622,1346,,,,,,,,
